{"type":"FeatureCollection","features":[{"type":"Feature","id":"THOR:WWI:800","geometry":{"type":"Point","coordinates":[10.7,46.0]},"properties":{"kind":"attack","src":"thor","ref":"THOR:WWI:800","name":"BETWEEN TRINE & BREGUZZO, IN GIUDICARIE","msn_date":"1916-01-11","day_from":740,"day_to":740,"attacker":"Allied","country":"ITALY","aircraft":"CAPRONI CA.32","planes":2,"tgt_country":"ITALY","tgt_type":"ENEMY BARRACKS"}},{"type":"Feature","id":"THOR:WWI:801","geometry":{"type":"Point","coordinates":[11.11237,46.10597]},"properties":{"kind":"attack","src":"thor","ref":"THOR:WWI:801","name":"GARDOLO, N OF TRENTO","msn_date":"1916-01-12","day_from":741,"day_to":741,"attacker":"Allied","country":"ITALY","aircraft":"CAPRONI CA.32","tgt_country":"ITALY","tgt_type":"AIRFIELD, TRENTO STATION, ROVERTO STATION, BARRACKS AT VOLANO"}},{"type":"Feature","id":"THOR:WWI:802","geometry":{"type":"Point","coordinates":[13.70107,45.95065]},"properties":{"kind":"attack","src":"thor","ref":"THOR:WWI:802","name":"E OF ISONZO - AISOVIZZA/CHIAPOVANO & DORNBERG/LONGATICO, PRAVACINA, LUBIANA","msn_date":"1916-01-16","day_from":745,"day_to":745,"attacker":"Allied","country":"ITALY","aircraft":"CAPRONI CA.32","tgt_type":"AIRFIELD/ TROOP BARRACKS / RAIL STATIONS"}},{"type":"Feature","id":"THOR:WWI:803","geometry":{"type":"Point","coordinates":[13.67496,45.74707]},"properties":{"kind":"attack","src":"thor","ref":"THOR:WWI:803","name":"NABRESINA","msn_date":"1916-02-17","day_from":777,"day_to":777,"attacker":"Allied","country":"ITALY","aircraft":"CAPRONI CA.32","planes":2,"tgt_country":"ITALY"}},{"type":"Feature","id":"THOR:WWI:804","geometry":{"type":"Point","coordinates":[11.73333,45.76667]},"properties":{"kind":"attack","src":"thor","ref":"THOR:WWI:804","name":"BASSANO","msn_date":"1916-04-04","day_from":824,"day_to":824,"attacker":"Allied","country":"ITALY","aircraft":"CAPRONI CA.32","planes":2,"tgt_country":"ITALY"}},{"type":"Feature","id":"THOR:WWI:805","geometry":{"type":"Point","coordinates":[13.06667,46.66667]},"properties":{"kind":"attack","src":"thor","ref":"THOR:WWI:805","name":"DELLACH AND KOTSCHACH IN GAIL VALLEY","msn_date":"1916-05-17","day_from":867,"day_to":867,"attacker":"Allied","country":"ITALY","aircraft":"CAPRONI CA.32","tgt_country":"AUSTRIA"}},{"type":"Feature","id":"THOR:WWI:806","geometry":{"type":"Point","coordinates":[11.367,45.85]},"properties":{"kind":"attack","src":"thor","ref":"THOR:WWI:806","name":"BOTTOM OF ASTICO VALLEY","msn_date":"1916-06-03","day_from":884,"day_to":884,"attacker":"Allied","country":"ITALY","aircraft":"CAPRONI CA.32/ FARMANN","tgt_country":"ITALY","tgt_type":"ENEMY CAMPS AND STAGING AREAS"}},{"type":"Feature","id":"THOR:WWI:807","geometry":{"type":"Point","coordinates":[11.617,45.617]},"properties":{"kind":"attack","src":"thor","ref":"THOR:WWI:807","name":"ASSA AND ANTICO VALLEYS","msn_date":"1916-06-10","day_from":891,"day_to":891,"attacker":"Allied","country":"ITALY","aircraft":"CAPRONI CA.32","tgt_country":"ITALY","tgt_type":"ENEMY CAMPS AND DEFENSES"}},{"type":"Feature","id":"THOR:WWI:808","geometry":{"type":"Point","coordinates":[11.617,45.617]},"properties":{"kind":"attack","src":"thor","ref":"THOR:WWI:808","name":"UPPER ASSA VALLEY PLATEAU","msn_date":"1916-07-03","day_from":914,"day_to":914,"attacker":"Allied","country":"ITALY","aircraft":"CAPRONI CA.32","tgt_country":"ITALY"}},{"type":"Feature","id":"THOR:WWI:809","geometry":{"type":"Point","coordinates":[11.65,46.317]},"properties":{"kind":"attack","src":"thor","ref":"THOR:WWI:809","name":"BELLAMONTE IN TRAVIGNOLO VALLEY","msn_date":"1916-07-26","day_from":937,"day_to":937,"attacker":"Allied","country":"ITALY","aircraft":"CAPRONI CA.32","tgt_country":"ITALY","tgt_type":"STAGING AREA AND ARSENAL"}},{"type":"Feature","id":"THOR:WWI:810","geometry":{"type":"Point","coordinates":[18.30444,45.0475]},"properties":{"kind":"attack","src":"thor","ref":"THOR:WWI:810","name":"OPCINA","msn_date":"1916-08-12","day_from":954,"day_to":954,"attacker":"Allied","country":"ITALY","aircraft":"CAPRONI CA.32","weapon_type":"LARGE BOMBS","tgt_country":"ITALY","tgt_type":"STATION (STATION DESTROYED)"}},{"type":"Feature","id":"THOR:WWI:811","geometry":{"type":"Point","coordinates":[12.0292,46.4597]},"properties":{"kind":"attack","src":"thor","ref":"THOR:WWI:811","name":"COL SANTO (ADIGE VALLEY)","msn_date":"1916-10-12","day_from":1015,"day_to":1015,"attacker":"Allied","country":"ITALY","aircraft":"CAPRONI CA.32","tgt_country":"FRANCE","tgt_type":"ENEMY POSITIONS"}},{"type":"Feature","id":"THOR:WWI:812","geometry":{"type":"Point","coordinates":[11.03333,45.86667]},"properties":{"kind":"attack","src":"thor","ref":"THOR:WWI:812","name":"N OF ROVERTO","msn_date":"1916-12-01","day_from":1065,"day_to":1065,"attacker":"Allied","country":"ITALY","aircraft":"CAPRONI CA.32","tgt_country":"ITALY","tgt_type":"VOLANO STATION"}},{"type":"Feature","id":"THOR:WWI:813","geometry":{"type":"Point","coordinates":[13.78417,45.85722]},"properties":{"kind":"attack","src":"thor","ref":"THOR:WWI:813","name":"RIFINBERGA STATION IN BRANIZZA VALLEY, VIPACCO ONE OF PREIGIDO AFFLUENTS","msn_date":"1916-12-01","day_from":1065,"day_to":1065,"attacker":"Allied","country":"ITALY","aircraft":"CAPRONI CA.32","tgt_type":"LONG TRAINS HIT WHILE ON SIDE TRACKS"}},{"type":"Feature","id":"THOR:WWI:814","geometry":{"type":"Point","coordinates":[13.767,45.717]},"properties":{"kind":"attack","src":"thor","ref":"THOR:WWI:814","name":"PROSECCO  / TRIESTE","msn_date":"1916-12-07","day_from":1071,"day_to":1071,"attacker":"Allied","country":"ITALY","aircraft":"CAPRONI CA.32","tgt_country":"ITALY","tgt_type":"ENEMY AIRFIELD / SEPLANE BASE ON TRIESTE PIER"}},{"type":"Feature","id":"THOR:WWI:851","geometry":{"type":"Point","coordinates":[11.0667,45.9167]},"properties":{"kind":"attack","src":"thor","ref":"THOR:WWI:851","name":"VOLANO","msn_date":"1916-01-18","day_from":747,"day_to":747,"attacker":"Allied","country":"ITALY","aircraft":"CAPRONI CA.32","planes":2,"takeoff_base":"PORDENONE","takeoff_coord":[12.59647,46.03189],"bombload_lb":780,"tgt_type":"AUSTRIAN HQ"}},{"type":"Feature","id":"THOR:WWI:853","geometry":{"type":"Point","coordinates":[14.57778,46.05]},"properties":{"kind":"attack","src":"thor","ref":"THOR:WWI:853","name":"LAIBACH/LUBIANA","msn_date":"1916-02-18","day_from":778,"day_to":778,"attacker":"Allied","country":"ITALY","aircraft":"CAPRONI CA.32","planes":34,"takeoff_base":"PORDENONE","takeoff_coord":[12.59647,46.03189],"bombload_lb":780,"tgt_country":"SLOVENIA","tgt_type":"TOWN"}},{"type":"Feature","id":"THOR:WWI:855","geometry":{"type":"Point","coordinates":[14.21667,45.77694]},"properties":{"kind":"attack","src":"thor","ref":"THOR:WWI:855","name":"ADELSBERG","msn_date":"1916-04-03","day_from":823,"day_to":823,"attacker":"Allied","country":"ITALY","aircraft":"CAPRONI CA.32","planes":33,"takeoff_base":"PORDENONE","takeoff_coord":[12.59647,46.03189],"weapon_type":"BOMBS","weapon_weight_lb":4680,"bombload_lb":780,"tgt_country":"GERMANY","tgt_type":"RAIL STATION AND AUSTRIAN HQ"}},{"type":"Feature","id":"THOR:WWI:857","geometry":{"type":"Point","coordinates":[13.5,45.91667]},"properties":{"kind":"attack","src":"thor","ref":"THOR:WWI:857","name":"GORIZIA (GRAFENBERG)","msn_date":"1916-04-04","day_from":824,"day_to":824,"attacker":"Allied","country":"ITALY","aircraft":"CAPRONI CA.32","planes":2,"takeoff_base":"PORDENONE","takeoff_coord":[12.59647,46.03189],"weapon_type":"HEAVY BOMB","weapon_weight_lb":780,"bombload_lb":780,"tgt_country":"ITALY","tgt_type":"TOWN"}},{"type":"Feature","id":"THOR:WWI:859","geometry":{"type":"Point","coordinates":[18.30444,45.0475]},"properties":{"kind":"attack","src":"thor","ref":"THOR:WWI:859","name":"OPCINA","msn_date":"1916-04-02","day_from":822,"day_to":822,"attacker":"Allied","country":"ITALY","service":"ARMY","aircraft":"AIRSHIP","planes":2,"departure":"NIGHT","takeoff_base":"CAMPALTO","takeoff_coord":[11.0833,45.4],"bombload_lb":2200,"altitude_ft":15000,"tgt_country":"ITALY","tgt_type":"RAIL LINE"}},{"type":"Feature","id":"THOR:WWI:860","geometry":{"type":"Point","coordinates":[13.7604,45.63728]},"properties":{"kind":"attack","src":"thor","ref":"THOR:WWI:860","name":"TRIESTE","msn_date":"1916-04-21","day_from":841,"day_to":841,"attacker":"Allied","country":"ITALY","aircraft":"CAPRONI CA.32","takeoff_base":"PORDENONE","takeoff_coord":[12.59647,46.03189],"weapon_type":"FRAG BOMBS","bombload_lb":780,"tgt_country":"ITALY","tgt_type":"SEAPLANE STATION"}},{"type":"Feature","id":"THOR:WWI:861","geometry":{"type":"Point","coordinates":[18.30444,45.0475]},"properties":{"kind":"attack","src":"thor","ref":"THOR:WWI:861","name":"OPCINA","msn_date":"1916-08-07","day_from":949,"day_to":949,"attacker":"Allied","country":"ITALY","service":"ARMY","aircraft":"AIRSHIP","departure":"NIGHT","takeoff_base":"CAMPALTO","takeoff_coord":[11.0833,45.4],"bombload_lb":2200,"altitude_ft":15000,"tgt_country":"ITALY","tgt_type":"RAIL LINE"}},{"type":"Feature","id":"THOR:WWI:864","geometry":{"type":"Point","coordinates":[18.21444,42.77333]},"properties":{"kind":"attack","src":"thor","ref":"THOR:WWI:864","name":"KOSTANIEVICA, LOKVICE, SEGETI","msn_date":"1916-05-16","day_from":866,"day_to":866,"attacker":"Allied","country":"ITALY","aircraft":"CAPRONI CA.32","takeoff_base":"PORDENONE","takeoff_coord":[12.59647,46.03189],"weapon_type":"BOMBS","bombload_lb":780,"tgt_country":"SLOVENIA","tgt_type":"ENEMY CATONMENTS"}},{"type":"Feature","id":"THOR:WWI:865","geometry":{"type":"Point","coordinates":[13.701,45.906]},"properties":{"kind":"attack","src":"thor","ref":"THOR:WWI:865","name":"OVCIA DRAGA / OVOIA DRAGA, COSTANIEVIO/LOKVICA/SEGATI","msn_date":"1916-05-16","day_from":866,"day_to":866,"attacker":"Allied","country":"ITALY","aircraft":"CAPRONI CA.32","takeoff_base":"PORDENONE","takeoff_coord":[12.59647,46.03189],"weapon_type":"BOMBS","bombload_lb":780,"tgt_type":"RAIL STATION, ENEMY CAMPS"}},{"type":"Feature","id":"THOR:WWI:867","geometry":{"type":"Point","coordinates":[13.28611,45.88417]},"properties":{"kind":"attack","src":"thor","ref":"THOR:WWI:867","name":"TORRE VALLEY AND ARSA VALLEY","msn_date":"1916-05-26","day_from":876,"day_to":876,"attacker":"Allied","country":"ITALY","aircraft":"CAPRONI CA.32","takeoff_base":"PORDENONE","takeoff_coord":[12.59647,46.03189],"bombload_lb":780,"tgt_type":"ENEMY POSITIONS"}},{"type":"Feature","id":"THOR:WWI:868","geometry":{"type":"Point","coordinates":[11.617,45.617]},"properties":{"kind":"attack","src":"thor","ref":"THOR:WWI:868","name":"UPPER ASSA VALLEY","msn_date":"1916-05-30","day_from":880,"day_to":880,"attacker":"Allied","country":"ITALY","aircraft":"CAPRONI CA.32","takeoff_base":"PORDENONE","takeoff_coord":[12.59647,46.03189],"bombload_lb":780,"tgt_country":"ITALY","tgt_type":"ENEMY ENCAMPMENT AND ARSENAL"}},{"type":"Feature","id":"THOR:WWI:869","geometry":{"type":"Point","coordinates":[11.617,45.617]},"properties":{"kind":"attack","src":"thor","ref":"THOR:WWI:869","name":"ASSA VALLEY","msn_date":"1916-06-01","day_from":882,"day_to":882,"attacker":"Allied","country":"ITALY","aircraft":"CAPRONI CA.32","takeoff_base":"PORDENONE","takeoff_coord":[12.59647,46.03189],"bombload_lb":780,"tgt_country":"ITALY","tgt_type":"ENEMY CAMPS AND DEPOTS"}},{"type":"Feature","id":"THOR:WWI:872","geometry":{"type":"Point","coordinates":[11.554,45.941]},"properties":{"kind":"attack","src":"thor","ref":"THOR:WWI:872","name":"JUNCTION OF NOS AND CAMPOMULO VALLEYS","msn_date":"1916-06-15","day_from":896,"day_to":896,"attacker":"Allied","country":"ITALY","aircraft":"CAPRONI CA.32/ FARMANN","takeoff_base":"PORDENONE","takeoff_coord":[12.59647,46.03189],"bombload_lb":780,"tgt_country":"ITALY","tgt_type":"ENEMY ENCAMPMENTS"}},{"type":"Feature","id":"THOR:WWI:873","geometry":{"type":"Point","coordinates":[10.83333,46.45]},"properties":{"kind":"attack","src":"thor","ref":"THOR:WWI:873","name":"MATARELLO (LAGARINA VALLEY)","msn_date":"1916-06-15","day_from":896,"day_to":896,"attacker":"Allied","country":"ITALY","aircraft":"CAPRONI CA.32","takeoff_base":"PORDENONE","takeoff_coord":[12.59647,46.03189],"bombload_lb":780,"tgt_country":"ITALY","tgt_type":"RAIL STATION"}},{"type":"Feature","id":"THOR:WWI:874","geometry":{"type":"Point","coordinates":[10.83333,46.45]},"properties":{"kind":"attack","src":"thor","ref":"THOR:WWI:874","name":"MATARELLO (LAGARINA VALLEY)","msn_date":"1916-06-15","day_from":896,"day_to":896,"attacker":"Allied","country":"ITALY","aircraft":"CAPRONI CA.32","planes":33,"takeoff_base":"PORDENONE","takeoff_coord":[12.59647,46.03189],"weapon_weight_lb":4680,"bombload_lb":780,"tgt_country":"ITALY","tgt_type":"RAIL STATION"}},{"type":"Feature","id":"THOR:WWI:875","geometry":{"type":"Point","coordinates":[11.4555,46.0524]},"properties":{"kind":"attack","src":"thor","ref":"THOR:WWI:875","name":"VAL SUGANA (15M E OF TRENTE)","msn_date":"1916-06-21","day_from":902,"day_to":902,"attacker":"Allied","country":"ITALY","aircraft":"CAPRONI CA.32/ FARMANN","planes":26,"takeoff_base":"PORDENONE","takeoff_coord":[12.59647,46.03189],"weapon_weight_lb":26520,"bombload_lb":780,"tgt_country":"ITALY","tgt_type":"PERGINE AVAIATION STATION"}},{"type":"Feature","id":"THOR:WWI:877","geometry":{"type":"Point","coordinates":[11.51422,45.94456]},"properties":{"kind":"attack","src":"thor","ref":"THOR:WWI:877","name":"ASIAGO PLATEAU","msn_date":"1916-06-25","day_from":906,"day_to":906,"attacker":"Allied","country":"ITALY","aircraft":"CAPRONI CA.32","takeoff_base":"PORDENONE","takeoff_coord":[12.59647,46.03189],"bombload_lb":780,"tgt_country":"ITALY"}},{"type":"Feature","id":"THOR:WWI:878","geometry":{"type":"Point","coordinates":[13.06667,46.66667]},"properties":{"kind":"attack","src":"thor","ref":"THOR:WWI:878","name":"DELLACH (DRAVE VALLEY)","msn_date":"1916-06-27","day_from":908,"day_to":908,"attacker":"Allied","takeoff_base":"PORDENONE","takeoff_coord":[12.59647,46.03189],"tgt_country":"AUSTRIA","tgt_type":"DEPOTS"}},{"type":"Feature","id":"THOR:WWI:879","geometry":{"type":"Point","coordinates":[11.26502,45.9908]},"properties":{"kind":"attack","src":"thor","ref":"THOR:WWI:879","name":"MONTE ROVERE (SE OF CALDONAZZO)","msn_date":"1916-06-27","day_from":908,"day_to":908,"attacker":"Allied","country":"ITALY","aircraft":"CAPRONI CA.32","takeoff_base":"PORDENONE","takeoff_coord":[12.59647,46.03189],"bombload_lb":780,"tgt_country":"ITALY","tgt_type":"ENEMY VEHICLE PARK"}},{"type":"Feature","id":"THOR:WWI:880","geometry":{"type":"Point","coordinates":[12.97,46.743]},"properties":{"kind":"attack","src":"thor","ref":"THOR:WWI:880","name":"OBER-DRAUBURG (BETWEEN VILLACH AND TOBLACH)","msn_date":"1916-06-27","day_from":908,"day_to":908,"attacker":"Allied","takeoff_base":"PORDENONE","takeoff_coord":[12.59647,46.03189],"tgt_country":"AUSTRIA","tgt_type":"RAIL STATION"}},{"type":"Feature","id":"THOR:WWI:881","geometry":{"type":"Point","coordinates":[11.617,45.617]},"properties":{"kind":"attack","src":"thor","ref":"THOR:WWI:881","name":"UPPER ASSA VALLEY","msn_date":"1916-06-30","day_from":911,"day_to":911,"attacker":"Allied","country":"ITALY","aircraft":"CAPRONI CA.32","takeoff_base":"PORDENONE","takeoff_coord":[12.59647,46.03189],"bombload_lb":780,"tgt_country":"ITALY","tgt_type":"ENEMY ENCAMPMENTS"}},{"type":"Feature","id":"THOR:WWI:883","geometry":{"type":"Point","coordinates":[11.03317,45.88953]},"properties":{"kind":"attack","src":"thor","ref":"THOR:WWI:883","name":"S OF CALLIANO (NE OF ROVERTO) IN ADIGE VALLEY","msn_date":"1916-07-08","day_from":919,"day_to":919,"attacker":"Allied","country":"ITALY","aircraft":"CAPRONI CA.32","takeoff_base":"PORDENONE","takeoff_coord":[12.59647,46.03189],"bombload_lb":780,"tgt_country":"ITALY","tgt_type":"ENEMY POSITIONS AND COLUMNS"}},{"type":"Feature","id":"THOR:WWI:884","geometry":{"type":"Point","coordinates":[10.71667,46.03333]},"properties":{"kind":"attack","src":"thor","ref":"THOR:WWI:884","name":"TIONE","msn_date":"1916-07-10","day_from":921,"day_to":921,"attacker":"Allied","country":"ITALY","aircraft":"CAPRONI CA.32","takeoff_base":"PORDENONE","takeoff_coord":[12.59647,46.03189],"bombload_lb":780,"tgt_country":"ITALY"}},{"type":"Feature","id":"THOR:WWI:885","geometry":{"type":"Point","coordinates":[11.26502,45.9908]},"properties":{"kind":"attack","src":"thor","ref":"THOR:WWI:885","name":"MONTE ROVERE (SE OF CALDONAZZO)","msn_date":"1916-07-11","day_from":922,"day_to":922,"attacker":"Allied","takeoff_base":"PORDENONE","takeoff_coord":[12.59647,46.03189],"tgt_country":"ITALY","tgt_type":"ENEMY VEHICLE PARK"}},{"type":"Feature","id":"THOR:WWI:886","geometry":{"type":"Point","coordinates":[11.15887,45.91537]},"properties":{"kind":"attack","src":"thor","ref":"THOR:WWI:886","name":"FOLGARIA (NE OF ROVERTO)","msn_date":"1916-07-15","day_from":926,"day_to":926,"attacker":"Allied","country":"ITALY","aircraft":"CAPRONI CA.32","planes":8,"takeoff_base":"PORDENONE","takeoff_coord":[12.59647,46.03189],"weapon_weight_lb":11700,"bombload_lb":780,"tgt_country":"ITALY","tgt_type":"ENEMY CAMPS"}},{"type":"Feature","id":"THOR:WWI:888","geometry":{"type":"Point","coordinates":[14.4041,45.3348]},"properties":{"kind":"attack","src":"thor","ref":"THOR:WWI:888","name":"PUNTA BIANCA 3KM W OF FIUME","msn_date":"1916-08-01","day_from":943,"day_to":943,"attacker":"Allied","country":"ITALY","aircraft":"CAPRONI CA.32","takeoff_base":"PORDENONE","takeoff_coord":[12.59647,46.03189],"weapon_weight_lb":8000,"bombload_lb":780,"tgt_country":"ITALY","tgt_type":"WHITEHEAD TORPEDO AND SUBMARINE WORKS"}},{"type":"Feature","id":"THOR:WWI:890","geometry":{"type":"Point","coordinates":[13.71806,45.89]},"properties":{"kind":"attack","src":"thor","ref":"THOR:WWI:890","name":"PRVACINA & DORNBERG","msn_date":"1916-08-11","day_from":953,"day_to":953,"attacker":"Allied","country":"ITALY","aircraft":"CAPRONI CA.32","planes":12,"takeoff_base":"PORDENONE","takeoff_coord":[12.59647,46.03189],"weapon_weight_lb":6000,"bombload_lb":333,"tgt_country":"SLOVENIA","tgt_type":"RAIL STATION AND MILITARY DEPOTS"}},{"type":"Feature","id":"THOR:WWI:892","geometry":{"type":"Point","coordinates":[13.71806,45.89]},"properties":{"kind":"attack","src":"thor","ref":"THOR:WWI:892","name":"PRVACINA & DORNBERG","msn_date":"1916-08-15","day_from":957,"day_to":957,"attacker":"Allied","country":"ITALY","aircraft":"CAPRONI CA.32","planes":7,"takeoff_base":"PORDENONE","takeoff_coord":[12.59647,46.03189],"weapon_type":"60 LB BOMBS","weapon_weight_lb":5400,"bombload_lb":385,"tgt_country":"SLOVENIA","tgt_type":"RAIL STATION AND MILITARY DEPOTS"}},{"type":"Feature","id":"THOR:WWI:894","geometry":{"type":"Point","coordinates":[13.7604,45.63728]},"properties":{"kind":"attack","src":"thor","ref":"THOR:WWI:894","name":"TRIESTE","msn_date":"1916-09-13","day_from":986,"day_to":986,"attacker":"Allied","country":"ITALY","aircraft":"CAPRONI CA.32","planes":19,"takeoff_base":"PORDENONE","takeoff_coord":[12.59647,46.03189],"weapon_type":"60 LB BOMBS","weapon_weight_lb":10320,"bombload_lb":469,"tgt_country":"ITALY","tgt_type":"LLOYDS ARSENAL AND SEAPLANE STATION"}},{"type":"Feature","id":"THOR:WWI:895","geometry":{"type":"Point","coordinates":[13.68827,45.75394]},"properties":{"kind":"attack","src":"thor","ref":"THOR:WWI:895","name":"DOTTEGLIANO (8 MI N OF TRIESTE)& SCOPPO (10 MI N OF TRIESTE)","msn_date":"1916-09-18","day_from":991,"day_to":991,"attacker":"Allied","country":"ITALY","aircraft":"CAPRONI CA.32","takeoff_base":"PORDENONE","takeoff_coord":[12.59647,46.03189],"tgt_country":"ITALY","tgt_type":"RAIL STATIONS, STORES, WATER TANKS AND TRAINS"}},{"type":"Feature","id":"THOR:WWI:896","geometry":{"type":"Point","coordinates":[10.83333,46.45]},"properties":{"kind":"attack","src":"thor","ref":"THOR:WWI:896","name":"MATARELLO (LAGARINA VALLEY)","msn_date":"1916-09-18","day_from":991,"day_to":991,"attacker":"Allied","country":"ITALY","aircraft":"CAPRONI CA.32","planes":14,"takeoff_base":"PORDENONE","takeoff_coord":[12.59647,46.03189],"weapon_weight_lb":1560,"bombload_lb":780,"tgt_country":"ITALY"}},{"type":"Feature","id":"THOR:WWI:900","geometry":{"type":"Point","coordinates":[13.67496,45.74707]},"properties":{"kind":"attack","src":"thor","ref":"THOR:WWI:900","name":"NABRESINA, DOTTEGLIANO, SCOPPO","msn_date":"1916-11-01","day_from":1035,"day_to":1035,"attacker":"Allied","country":"ITALY","aircraft":"CAPRONI CA.32","planes":7,"takeoff_base":"PORDENONE","takeoff_coord":[12.59647,46.03189],"weapon_weight_lb":10920,"bombload_lb":780,"tgt_type":"RAIL STATIONS"}},{"type":"Feature","id":"THOR:WWI:901","geometry":{"type":"Point","coordinates":[13.96306,45.84667]},"properties":{"kind":"attack","src":"thor","ref":"THOR:WWI:901","name":"FRIGIDO VALLEY (VIPACCO)","msn_date":"1916-11-02","day_from":1036,"day_to":1036,"attacker":"Allied","country":"ITALY","aircraft":"CAPRONI CA.32","planes":10,"takeoff_base":"PORDENONE","takeoff_coord":[12.59647,46.03189],"weapon_type":"60 LB BOMBS","weapon_weight_lb":4020,"bombload_lb":251,"tgt_country":"ITALY","tgt_type":"ENEMY CAMPS"}},{"type":"Feature","id":"THOR:WWI:904","geometry":{"type":"Point","coordinates":[13.96306,45.84667]},"properties":{"kind":"attack","src":"thor","ref":"THOR:WWI:904","name":"FRIGIDO VALLEY (VIPACCO)","msn_date":"1916-12-03","day_from":1067,"day_to":1067,"attacker":"Allied","country":"ITALY","aircraft":"CAPRONI CA.32","takeoff_base":"PORDENONE","takeoff_coord":[12.59647,46.03189],"bombload_lb":780,"tgt_country":"ITALY","tgt_type":"ENEMY BILLETS"}},{"type":"Feature","id":"THOR:WWI:905","geometry":{"type":"Point","coordinates":[13.68827,45.75394]},"properties":{"kind":"attack","src":"thor","ref":"THOR:WWI:905","name":"DOTTEGLIANO (8 MI N OF TRIESTE)& SCOPPO (10 MI N OF TRIESTE)","msn_date":"1916-12-04","day_from":1068,"day_to":1068,"attacker":"Allied","country":"ITALY","aircraft":"CAPRONI CA.32","takeoff_base":"PORDENONE","takeoff_coord":[12.59647,46.03189],"weapon_weight_lb":3000,"bombload_lb":780,"tgt_country":"ITALY","tgt_type":"RAIL STATIONS"}},{"type":"Feature","id":"THOR:WWI:907","geometry":{"type":"Point","coordinates":[13.71806,45.89]},"properties":{"kind":"attack","src":"thor","ref":"THOR:WWI:907","name":"DORIMBERGO IN FRIGIDO VALLEY (VIPACCO)","msn_date":"1916-12-22","day_from":1086,"day_to":1086,"attacker":"Allied","country":"ITALY","aircraft":"CAPRONI CA.32","takeoff_base":"PORDENONE","takeoff_coord":[12.59647,46.03189],"bombload_lb":780,"tgt_country":"ITALY","tgt_type":"RAIL STATION, REAR OF ENEMY LINES"}},{"type":"Feature","id":"THOR:WWI:1353","geometry":{"type":"Point","coordinates":[14.2681,45.2511]},"properties":{"kind":"attack","src":"thor","ref":"THOR:WWI:1353","name":"RIVA","msn_date":"1916-04-09","day_from":829,"day_to":829,"attacker":"Allied","country":"ITALY","aircraft":"AIRSHIP","planes":2,"departure":"NIGHT","takeoff_base":"BOSCOMANTICO","takeoff_coord":[10.9279,45.472],"bombload_lb":2200,"altitude_ft":15000,"tgt_country":"ITALY","tgt_type":"FORTRESS"}},{"type":"Feature","id":"THOR:WWI:1355","geometry":{"type":"Point","coordinates":[11.09748,46.10755]},"properties":{"kind":"attack","src":"thor","ref":"THOR:WWI:1355","name":"TRENTO","msn_date":"1916-05-01","day_from":851,"day_to":851,"attacker":"Allied","country":"ITALY","aircraft":"AIRSHIP","planes":2,"departure":"NIGHT","takeoff_base":"BOSCOMANTICO","takeoff_coord":[10.9279,45.472],"bombload_lb":2200,"altitude_ft":15000,"tgt_country":"ITALY","tgt_type":"RAIL STATION"}},{"type":"Feature","id":"THOR:WWI:1359","geometry":{"type":"Point","coordinates":[13.70107,45.95065]},"properties":{"kind":"attack","src":"thor","ref":"THOR:WWI:1359","name":"AISOVIZZA","msn_date":"1916-05-03","day_from":853,"day_to":853,"attacker":"Allied","country":"ITALY","aircraft":"AIRSHIP","planes":2,"departure":"NIGHT","takeoff_base":"CASARSA","takeoff_coord":[12.8189,45.9528],"bombload_lb":2200,"altitude_ft":15000,"tgt_country":"ITALY","tgt_type":"AIRDROME"}},{"type":"Feature","id":"THOR:WWI:1360","geometry":{"type":"Point","coordinates":[13.65277,45.76535]},"properties":{"kind":"attack","src":"thor","ref":"THOR:WWI:1360","name":"SISTIANA","msn_date":"1916-09-08","day_from":981,"day_to":981,"attacker":"Allied","country":"ITALY","aircraft":"AIRSHIP","planes":2,"departure":"NIGHT","takeoff_base":"CASARSA","takeoff_coord":[12.8189,45.9528],"bombload_lb":2200,"altitude_ft":15000,"tgt_country":"ITALY","tgt_type":"VIADUCT"}},{"type":"Feature","id":"THOR:WWI:1363","geometry":{"type":"Point","coordinates":[13.68827,45.75394]},"properties":{"kind":"attack","src":"thor","ref":"THOR:WWI:1363","name":"DOTTOGLIANO","msn_date":"1916-09-24","day_from":997,"day_to":997,"attacker":"Allied","country":"ITALY","aircraft":"AIRSHIP","planes":2,"departure":"NIGHT","takeoff_base":"CASARSA","takeoff_coord":[12.8189,45.9528],"bombload_lb":2200,"altitude_ft":15000,"tgt_country":"ITALY","tgt_type":"STATION"}},{"type":"Feature","id":"THOR:WWI:1364","geometry":{"type":"Point","coordinates":[13.584,45.851]},"properties":{"kind":"attack","src":"thor","ref":"THOR:WWI:1364","name":"OPPACCHIASELLA AND COMEN","msn_date":"1916-09-26","day_from":999,"day_to":999,"attacker":"Allied","country":"ITALY","aircraft":"AIRSHIP","planes":2,"departure":"NIGHT","takeoff_base":"CASARSA","takeoff_coord":[12.8189,45.9528],"bombload_lb":2200,"altitude_ft":15000,"tgt_country":"SLOVENIA","tgt_type":"MILITARY WORKS"}},{"type":"Feature","id":"THOR:WWI:1437","geometry":{"type":"Point","coordinates":[13.6075,45.89556]},"properties":{"kind":"attack","src":"thor","ref":"THOR:WWI:1437","name":"RUBBIA AND MERNA","msn_date":"1916-05-02","day_from":852,"day_to":852,"attacker":"Allied","country":"ITALY","service":"ARMY","aircraft":"AIRSHIP","planes":2,"departure":"NIGHT","takeoff_base":"BOSCOMANTICO","takeoff_coord":[10.9279,45.472],"bombload_lb":2200,"altitude_ft":15000,"tgt_country":"SLOVENIA","tgt_type":"ENCAMPMENT, TRENCHES AND BATTERY"}},{"type":"Feature","id":"THOR:WWI:1439","geometry":{"type":"Point","coordinates":[13.67496,45.74707]},"properties":{"kind":"attack","src":"thor","ref":"THOR:WWI:1439","name":"NABRESINA","msn_date":"1916-04-04","day_from":824,"day_to":824,"attacker":"Allied","country":"ITALY","service":"ARMY","aircraft":"AIRSHIP","planes":2,"departure":"NIGHT","takeoff_base":"BOSCOMANTICO","takeoff_coord":[10.9279,45.472],"bombload_lb":2200,"altitude_ft":15000,"tgt_country":"ITALY","tgt_type":"RAIL CENTER"}},{"type":"Feature","id":"THOR:WWI:1440","geometry":{"type":"Point","coordinates":[13.5081,45.4908]},"properties":{"kind":"attack","src":"thor","ref":"THOR:WWI:1440","name":"PUNTA SALVORE","msn_date":"1916-06-24","day_from":905,"day_to":905,"attacker":"Allied","country":"ITALY","aircraft":"AIRSHIP","planes":2,"departure":"NIGHT","takeoff_base":"BOSCOMANTICO","takeoff_coord":[10.9279,45.472],"bombload_lb":2200,"altitude_ft":15000,"tgt_country":"ITALY","tgt_type":"TOWN?"}}]}